"","State_city_region","Country","latitude","longitude","ISO3","Moratoria_bans_limits","Subsidy_removal","Divestment","FFNPT","Source","Moratoria_bans_limits_total","Divestment_total","Subsidy_removal_total","ffnpt_total","City_region_state_total","treaty"
"1","City of Barcelona","Spain",41.3825,2.1769,"ESP",1,0,0,1,"https://campaign.fossilfueltreaty.org/updates/barcelona",1,0,0,1,2,1
"2","City of Los Angeles","United States of America",34.1139,-118.4068,"USA",0,0,1,1,"https://www.c40.org/press_releases/cities-commit-divest-invest",0,1,0,1,2,17
"3","City of Vancouver, BC","Canada",49.25,-123.1,"CAN",0,0,1,1,"https://www.c40.org/press_releases/cities-commit-divest-invest",0,1,0,1,2,15
"4","Amber Valley Borough Council","United Kingdom",53.0505934478,-1.40765881603,"GBR",0,0,0,1,"https://fossilfueltreaty.org/endorsements",0,0,0,1,1,11
"5","Lewes Town Council","United Kingdom",50.873872,0.00878,"GBR",0,0,0,1,"https://www.independent.co.uk/climate-change/news/council-stem-fossil-fuel-investments-b1822896.html",0,0,0,1,1,11
"6","The Australian Capital Territory","Australia",-35.473469,149.012375,"AUS",0,0,0,1,"https://fossilfueltreaty.org/endorsements",0,0,0,1,1,8
"7","City of Darebin, Melbourne","Australia",-37.727768,145.016269,"AUS",0,0,0,1,"https://fossilfueltreaty.org/endorsements",0,0,0,1,1,8
"8","City of Moreland, Melbourne","Australia",-37.840935,144.946457,"AUS",0,0,0,1,"https://fossilfueltreaty.org/endorsements",0,0,0,1,1,8
"9","City of Hayward","United States of America",37.668819,-122.080795,"USA",0,0,0,1,"https://fossilfueltreaty.org/endorsements",0,0,0,1,1,17
"10","City of Yakima","United States of America",46.60207,-120.505898,"USA",0,0,0,1,"https://fossilfueltreaty.org/endorsements",0,0,0,1,1,17
"11","City of Toronto","Canada",43.65107,-79.347015,"CAN",0,0,1,1,"https://fossilfueltreaty.org/toronto",0,1,0,1,2,15
"12","City of Yarra, Melbourne","Australia",-37.797922,144.988722,"AUS",0,0,0,1,"https://fossilfueltreaty.org/endorsements",0,0,0,1,1,8
"13","City of Sydney","Australia",-33.865143,151.2099,"AUS",0,0,0,1,"https://fossilfueltreaty.org/sydney",0,0,0,1,1,8
"14","City of Santa Ana","United States of America",33.745571,-117.867836,"USA",0,0,0,1,"https://www.stand.earth/latest/fossil-fuel-free/santa-ana-city-council-passes-courageous-visionary-commitment-address",0,0,0,1,1,17
"15","Dhulikhel","Nepal",27.6221,85.54281,"NPL",0,0,0,1,"https://fossilfueltreaty.org/dhulikhel",0,0,0,1,1,2
"16","City of Cambridge","United Kingdom",52.205276,0.119167,"GBR",0,0,0,1,"https://twitter.com/fossiltreaty/status/1451331599371366406",0,0,0,1,1,11
"17","Turrialba","Costa Rica",9.9011,-83.6845,"CRI",0,0,0,1,"https://fossilfueltreaty.org/endorsements",0,0,0,1,1,8
"18","Siquirres","Costa Rica",10.09748,-83.50659,"CRI",0,0,0,1,"https://fossilfueltreaty.org/endorsements",0,0,0,1,1,8
"19","Curridabat","Costa Rica",9.9137,-84.039,"CRI",0,0,0,1,"https://fossilfueltreaty.org/endorsements",0,0,0,1,1,8
"20","Santa Ana","Costa Rica",9.9333333,-84.1833333,"CRI",0,0,0,1,"https://fossilfueltreaty.org/endorsements",0,0,0,1,1,8
"21","Montes de Oca","Costa Rica",9.9458041,-83.9929431,"CRI",0,0,0,1,"https://fossilfueltreaty.org/endorsements",0,0,0,1,1,8
"22","Buenos Aires","Costa Rica",9.167295,-83.330842,"CRI",0,0,0,1,"https://fossilfueltreaty.org/endorsements",0,0,0,2,2,8
"23","Buenos Aires","Costa Rica",9.167295,-83.330842,"CRI",0,0,0,1,"https://fossilfueltreaty.org/endorsements",0,0,0,2,2,8
"24","Tilarán","Costa Rica",10.46701,-84.96775,"CRI",0,0,0,1,"https://fossilfueltreaty.org/endorsements",0,0,0,1,1,8
"25","Town of Somerset","United States of America",38.965,-77.096,"USA",0,0,0,1,"https://static1.squarespace.com/static/5dd3cc5b7fd99372fbb04561/t/61954de830d5734d0ea4acfc/1637174761210/Fossil+Fuel+Non-Proliferation+Treaty.pdf",0,0,0,1,1,17
"26","District of West Vancouver, BC","Canada",49.374024,-123.272816,"CAN",0,0,0,1,"https://fossilfueltreaty.org/endorsements",0,0,0,1,1,15
"27","City of Maribyrnong, Melbourne","Australia",-37.769193,144.88519,"AUS",0,0,0,1,"https://fossilfueltreaty.org/endorsements",0,0,0,1,1,8
"28","City of Bonn","Germany",50.73743,7.0982068,"DEU",0,0,0,1,"https://fossilfueltreaty.org/bonn-becomes-the-first-city-in-germany-to-endorse-the-fossil-fuel-treaty",0,0,0,1,1,3
"29","New Westminster, BC","Canada",49.206944,-122.91111,"CAN",0,0,0,1,"https://fossilfueltreaty.org/endorsements",0,0,0,1,1,15
"30","District of North Vancouver, BC","Canada",49.316666,-123.06934,"CAN",0,0,0,1,"https://fossilfueltreaty.org/endorsements",0,0,0,1,1,15
"31","London Borough of Lambeth","United Kingdom",51.273852,0.065976,"GBR",0,0,0,1,"https://love.lambeth.gov.uk/lambeth-treaty-pledge/",0,0,0,1,1,11
"32","City of Milwaukie, OR","United States of America",45.4444512,-122.62195,"USA",0,0,0,1,"https://fossilfueltreaty.org/endorsements",0,0,0,1,1,17
"33","City of Burnaby, BC ","Canada",49.2488,-122.9805,"CAN",0,0,0,1,"https://fossilfueltreaty.org/endorsements",0,0,0,1,1,15
"34","Itahari","Nepal",26.660944,87.280769,"NPL",0,0,0,1,"https://cansouthasia.net/nepalese-transportation-hub-itahari-endorses-the-fossil-fuel-non-proliferation-treaty/",0,0,0,1,1,2
"35","Grenoble","France",45.188529,5.724524,"FRA",0,0,0,1,"https://fossilfueltreaty.org/endorsements",0,0,0,1,1,11
"36","Amsterdam","Netherlands",52.377956,4.89707,"NLD",0,0,0,1,"https://fossilfueltreaty.org/major-energy-port-amsterdam-endorses-the-treaty",0,0,0,1,1,1
"37","Poitiers","France",46.5833,0.3333,"FRA",0,0,0,1,"https://fossilfueltreaty.org/latest/french-cities",0,0,0,1,1,11
"38","Lyon","France",45.764043,4.835659,"FRA",0,0,0,1,"https://fossilfueltreaty.org/latest/french-cities",0,0,0,1,1,11
"39","Bordeaux","France",44.836151,-0.580816,"FRA",0,0,0,1,"https://fossilfueltreaty.org/latest/french-cities",0,0,0,1,1,11
"40","The territory of Greater Paris","France",48.864716,2.349014,"FRA",0,0,0,1,"https://fossilfueltreaty.org/latest/french-cities",0,0,0,1,1,11
"41","La Région Bourgogne-Franche-Comté","France",47.0232,5.0923,"FRA",0,0,0,1,"https://abcdelib.de.bourgognefranchecomte.fr/documents/47660.pdf",0,0,0,1,1,11
"42","Edinburgh","United Kingdom",55.953251,-3.188267,"GBR",0,0,0,1,"https://fossilfueltreaty.org/edinburgh",0,0,0,1,1,11
"43","Paris","France",48.864716,2.349014,"FRA",0,0,0,1,"https://fossilfueltreaty.org/paris-endorsement",0,0,0,1,1,11
"44","Birmingham","United Kingdom",52.489471,-1.898575,"GBR",0,0,0,1,"https://twitter.com/fossiltreaty/status/1504815489037574156",0,0,0,1,1,11
"45","Geneva","Switzerland",46.204391,6.143158,"CHE",0,0,0,1,"https://fossilfueltreaty.org/geneva",0,0,0,2,2,6
"46","Geneva","Switzerland",46.204391,6.143158,"CHE",0,0,0,1,"https://fossilfueltreaty.org/geneva",0,0,0,2,2,6
"47","Besançon","France",47.240002,6.02,"FRA",0,0,0,1,"https://fossilfueltreaty.org/endorsements",0,0,0,1,1,11
"48","Montréal","Canada",45.508888,-73.561668,"CAN",0,0,0,1,"https://fossilfueltreaty.org/montreal",0,0,0,1,1,15
"49","Brighton and Hove","United Kingdom",50.827778,-0.152778,"GBR",0,0,0,1,"https://www.brightonhovegreens.org/2022/02/07/brighton-hove-calls-for-action-to-stop-the-expansion-of-fossil-fuels/",0,0,0,1,1,11
"50","Hawaii","United States of America",19.741755,-155.844437,"USA",0,0,0,1,"https://fossilfueltreaty.org/hawaii",0,0,0,1,1,17
"51","Victoria, BC","Canada",48.407326,-123.329773,"CAN",0,0,0,1,"https://fossilfueltreaty.org/victoria",0,0,0,1,1,15
"52","Richmond, BC","Canada",49.166592,-123.133568,"CAN",0,0,0,1,"https://fossilfueltreaty.org/endorsements",0,0,0,1,1,15
"53","County of Hawai'i","United States of America",19.5429,-155.6659,"USA",0,0,0,1,"https://fossilfueltreaty.org/endorsements",0,0,0,1,1,17
"54","Maui County, Hawaii","United States of America",20.798363,-156.331924,"USA",0,0,0,1,"https://mauicounty.legistar.com/View.ashx?GUID=33D53706-926A-4619-B0A0-E86997CE03B2&ID=10908172&M=F",0,0,0,1,1,17
"55","Richmond, California","United States of America",37.935757,-122.347748,"USA",0,0,0,1,"https://www.stand.earth/SAFEAnnouncement",0,0,0,1,1,17
"56","Port Moody, BC","Canada",49.283054,-122.831665,"CAN",0,0,0,1,"https://pub-portmoody.escribemeetings.com/filestream.ashx?DocumentId=15923",0,0,0,1,1,15
"57","Ottawa, ON","Canada",45.424721,-75.695,"CAN",0,0,0,1,"https://twitter.com/cmckenney/status/1539290170100486147/photo/1",0,0,0,1,1,15
"58","Islands Trust, BC","Canada",49.339331976,-123.30333212,"CAN",0,0,0,1,"https://fossilfueltreaty.org/endorsements",0,0,0,1,1,15
"59","Albany County, NY","United States of America",42.65258,-73.756233,"USA",0,0,0,1,"https://static1.squarespace.com/static/5dd3cc5b7fd99372fbb04561/t/62b5e5ecf280860a05f1f4fd/1656088046289/Albany+County%2C+NY+introduced+Treaty+proclamation.pdf",0,0,0,1,1,17
"60","Bethlehem, NY","United States of America",42.5778541,-73.8183804,"USA",0,0,0,1,"https://static1.squarespace.com/static/5dd3cc5b7fd99372fbb04561/t/62b5e612b40fbf292d43b782/1656088082709/2022+06+17_Town+of+Bethlehem_Resolution+on+Climate+Action.pdf",0,0,0,1,1,17
"61","City of London","United Kingdom",51.509865,-0.118092,"GBR",0,0,0,1,"https://fossilfueltreaty.org/london",0,0,0,1,1,11
"62","Holy See (Vatican City State)","Holy See (Vatican City State)",41.892604,12.476519,"VAT",0,0,0,1,"https://fossilfueltreaty.org/vatican",0,0,0,1,1,1
"63","Marburg","Germany",50.810001,8.770833,"DEU",0,0,0,1,"https://fossilfueltreaty.org/endorsements",0,0,0,1,1,3
"64","Hastings, Council","United Kingdom",50.854259,0.573453,"GBR",0,0,0,1,"https://divesteastsussex.wordpress.com/2022/07/13/hastings-council-endorses-call-for-fossil-fuel-treaty/",0,0,0,1,1,11
"65","Powell River, BC","Canada",49.830452,-124.513893,"CAN",0,0,0,1,"https://www.prpeak.com/local-news/call-for-fossil-fuel-treaty-supported-by-powell-river-city-council-5614040",0,0,0,1,1,15
"66","Lima","Peru",-12.046374,-77.042793,"PER",0,0,0,1,"https://fossilfueltreaty.org/lima",0,0,0,1,1,1
"67","London Borough of Newham","United Kingdom",51.5166646,0.0333332,"GBR",0,0,0,1,"https://twitter.com/fossiltreaty/status/1554295851727458304",0,0,0,1,1,11
"68","Belmopan","Belize",17.251011,-88.75902,"BLZ",0,0,0,1,"https://fossilfueltreaty.org/belmopan",0,0,0,1,1,1
"69","Kolkata","India",22.572646,88.363895,"IND",0,0,0,1,"https://fossilfueltreaty.org/kolkata",0,0,0,1,1,1
"70","Rennes","France",48.117266,-1.677793,"FRA",0,0,0,1,"https://fossilfueltreaty.org/endorsements",0,0,0,1,1,11
"71","Delémont","Switzerland",47.365837,7.345156,"CHE",0,0,0,1,"https://fossilfueltreaty.org/endorsements",0,0,0,2,2,6
"72","Delémont","Switzerland",47.365837,7.345156,"CHE",0,0,0,1,"https://fossilfueltreaty.org/endorsements",0,0,0,2,2,6
"73","City of Sebastopol","United States of America",38.4021359,-122.8238806,"USA",0,0,0,1,"https://fossilfueltreaty.org/endorsements",0,0,0,1,1,17
"74","Vanuatu","Vanuatu",-15.4492793,167.595411,"VUT",0,0,0,1,"https://fossilfueltreaty.org/endorsements/#governments",0,0,0,1,1,1
"75","Timor-Leste","Timor-Leste",-8.556856,125.56031,"TLS",0,0,0,1,"https://www.smh.com.au/environment/climate-change/for-a-fraction-of-australia-s-fighter-jet-budget-i-d-leave-east-timor-s-fuel-in-the-ground-20221004-p5bn6l.html",0,0,0,1,1,1
"76","Tuvalu","Tuvalu",-8.521147,179.196198,"TUV",0,0,0,1,"https://fossilfueltreaty.org/tuvalu",0,0,0,1,1,1
"77","Belém","Brazil",-1.455833,-48.503887,"BRA",0,0,0,1,"https://fossilfueltreaty.org/belem",0,0,0,1,1,1
"78","Port-au-Prince","Haiti",18.533333,-72.333336,"HTI",0,0,0,1,"https://fossilfueltreaty.org/endorsements",0,0,0,1,1,1
"79","Turin","Italy",45.116177,7.742615,"ITA",0,0,0,1,"https://fossilfueltreaty.org/endorsements",0,0,0,1,1,3
"80","Brussels-Capital Region","Belgium",50.85045,4.34878,"BEL",0,0,0,1,"https://fossilfueltreaty.org/brussels",0,0,0,1,1,1
"81","Warsaw","Poland",52.237049,21.017532,"POL",0,0,0,1,"https://fossilfueltreaty.org/warsaw",0,0,0,1,1,1
"82","Honolulu","United States of America",21.315603,-157.858093,"USA",0,0,0,1,"https://fossilfueltreaty.org/hawaii",0,0,0,1,1,17
"83","City of Pontassieve","Italy",43.774718,11.438469,"ITA",0,0,0,1,"https://fossilfueltreaty.org/endorsements",0,0,0,1,1,3
"84","Kloto 1","Togo",7.0833,0.75,"TGO",0,0,0,1,"https://fossilfueltreaty.org/endorsements/#governments",0,0,0,1,1,1
"85","Gatineau, QC","Canada",45.476545,-75.701272,"CAN",0,0,0,1,"https://static1.squarespace.com/static/5dd3cc5b7fd99372fbb04561/t/63c74633773e6905d163d787/1674004019509/CM-2022-740.pdf",0,0,0,1,1,15
"86","View Royal, BC","Canada",48.456009,-123.441048,"CAN",0,0,0,1,"https://fossilfueltreaty.org/endorsements/#governments",0,0,0,1,1,15
"87","Menjez","Lebanon",34.615959,36.246449,"LBN",0,0,0,1,"https://fossilfueltreaty.org/endorsements/#governments",0,0,0,2,2,2
"88","Menjez","Lebanon",34.615959,36.246449,"LBN",0,0,0,1,"https://fossilfueltreaty.org/endorsements/#governments",0,0,0,2,2,2
"89","City Government of Makati","Philippines",14.554729,121.024445,"PHL",0,0,0,1,"https://fossilfueltreaty.org/endorsements/#governments",0,0,0,1,1,1
"90","Hobart","Australia",-42.880554,147.324997,"AUS",0,0,0,1,"https://fossilfueltreaty.org/endorsements/#governments",0,0,0,1,1,8
"91","Niue","Niue",-19.054445,-169.867233,"NIU",0,0,0,1,"https://fossilfueltreaty.org/endorsements/#governments",0,0,0,1,1,1
"92","City of Merri-bek, Melbourne,","Australia",-37.765207,144.962592,"AUS",0,0,0,1,"https://climateactionmoreland.org/2021/05/13/moreland-council-endorses-fossil-fuel-treaty/",0,0,0,1,1,8
"93","Rome","Italy",41.902782,12.496366,"ITA",0,0,0,1,"https://fossilfueltreaty.org/rome",0,0,0,1,1,3
"94","South Dublin County Council","Ireland",53.281096,-6.434584,"IRL",0,0,0,1,"https://fossilfueltreaty.org/endorsements/#governments",0,0,0,1,1,2
"95","Heidelberg","Germany",49.3988,8.6724,"DEU",0,0,0,1,"https://fossilfueltreaty.org/endorsements/#governments",0,0,0,1,1,3
"96","Lewes District Council","United Kingdom",50.8664,0.0229,"GBR",0,0,0,1,"https://fossilfueltreaty.org/endorsements/#governments",0,0,0,1,1,11
"97","State of California","United States of America",36.7783,-119.4179,"USA",0,0,0,1,"https://fossilfueltreaty.org/california-assembly",0,0,0,1,1,17
"98","Austin, Texas","United States of America",30.2672,-97.7431,"USA",0,0,0,1,"https://fossilfueltreaty.org/austin",0,0,0,1,1,17
"99","Kāpiti Coast District Council, Aotearoa","New Zealand",-40.917,175.017,"NZL",0,0,0,1,"https://fossilfueltreaty.org/kapiti",0,0,0,1,1,1
"100","Dún Laoghaire-Rathdown","Ireland",53.349805,-6.126032,"IRL",0,0,0,1,"https://twitter.com/fossiltreaty/status/1701981001969197345",0,0,0,1,1,2
"101","Lausannne","Switzerland",46.519962,6.633597,"CHE",0,0,0,1,"https://fossilfueltreaty.org/endorsements",0,0,0,2,2,6
"102","Lausannne","Switzerland",46.519962,6.633597,"CHE",0,0,0,1,"https://fossilfueltreaty.org/endorsements",0,0,0,2,2,6
"103","Loos-en-Gohelle","France",50.45786,2.79215,"FRA",0,0,0,1,"https://fossilfueltreaty.org/endorsements",0,0,0,1,1,11
"104","Portland, ME","United States of America",43.680031,-70.310425,"USA",0,0,0,1,"https://content.civicplus.com/api/assets/f06f4b42-0bdf-48d7-a90b-3b309f857a04?cache=1800",0,0,0,1,1,17
"105","Antigua and Barbuda","Antigua and Barbuda",17.087635,-61.772346,"ATG",0,0,0,1,"https://fossilfueltreaty.org/antigua-timor",0,0,0,1,1,1
"106","Palau","Palau",7.51498,134.58252,"PLW",0,0,0,1,"https://fossilfueltreaty.org/palau",0,0,0,1,1,1
"107","Colombia","Colombia",4.1156735,-72.9301367,"COL",0,0,0,1,"https://fossilfueltreaty.org/colombia",0,0,0,1,1,1
"108","The European Parliament","France",48.580002,7.75,"FRA",0,0,0,1,"https://fossilfueltreaty.org/european-parliament",0,0,0,1,1,11
"109","Tonga","Tonga",-21.178986,-175.198242,"TON",0,0,0,1,"https://fossilfueltreaty.org/fossil-free-pacific",0,0,0,1,1,1
"110","Solomon Islands","Solomon Islands",-9.445638,159.9729,"SLB",0,0,0,1,"https://fossilfueltreaty.org/fossil-free-pacific",0,0,0,1,1,1
"111","Samoa","Samoa",-13.58333333,-172.33333333,"WSM",0,0,0,1,"https://fossilfueltreaty.org/samoa",0,0,0,1,1,1
"112","Nauru","Nauru",-0.53333333,166.916666666,"NRU",0,0,0,1,"https://fossilfueltreaty.org/nauru",0,0,0,1,1,1
"113","All federal lands","United States of America",38,-97,"USA",1,0,0,0,"https://www.worldoil.com/news/2021/1/21/biden-prepares-to-end-new-oil-and-coal-leases-on-federal-land",1,0,0,0,1,17
"114","Antarctica","International",90,0,"ATA",1,0,0,0,"http://www.ats.aq/documents/recatt/Att006_e.pdf",1,0,0,0,1,0
"115","Arctic","Canada",64,-135,"CAN",1,0,0,0,"https://www.rcaanc-cirnac.gc.ca/eng/1535571547022/1538586415269",2,0,0,0,2,15
"116","Arctic","United States of America",38,-97,"USA",1,0,0,0,"https://www.washingtonpost.com/news/energy-environment/wp/2016/12/20/president-obama-expected-to-ban-oil-drilling-in-large-areas-of-atlantic-and-arctic-oceans/",2,0,0,0,2,17
"117","Atlantic Coast; eastern Gulf of Mexico","United States of America",25.681137,-89.890137,"USA",1,0,0,0,"https://www.washingtonpost.com/wp-dyn/content/article/2010/12/01/AR2010120107185.html",1,0,0,0,1,17
"118","Berlin","Germany",52.5167,13.3833,"DEU",0,0,1,0,"https://www.c40.org/press_releases/cities-commit-divest-invest",0,1,0,0,1,3
"119","Bristol","United Kingdom",51.45,-2.5833,"GBR",0,0,1,0,"https://www.c40.org/press_releases/cities-commit-divest-invest",0,1,0,0,1,11
"120","British Columbia","Canada",48.5142,-123.3839,"CAN",1,0,0,0,"file:///home/chronos/u-abc8fdc6736d53a2de500e100fe62abb14e96c3e/MyFiles/Downloads/41AltaLRev101.pdf",3,0,0,0,3,15
"121","British Columbia","Canada",48.5142,-123.3839,"CAN",1,0,0,0,"https://www.energyregulationquarterly.ca/articles/proposed-oil-tanker-moratorium-act-a-brief-look-at-the-history-of-the-moratorium",3,0,0,0,3,15
"122","British Columbia","Canada",48.5142,-123.3839,"CAN",1,0,0,0,"https://www.energyregulationquarterly.ca/articles/proposed-oil-tanker-moratorium-act-a-brief-look-at-the-history-of-the-moratorium",3,0,0,0,3,15
"123","Broomfield","United States of America",39.9541,-105.0527,"USA",1,0,0,0,"https://www.dailycamera.com/2020/11/12/broomfield-extends-oil-and-gas-moratorium-another-6-months/",1,0,0,0,1,17
"124","Broomfield, Colorado","United States of America",39.9541,-105.0527,"USA",1,0,0,0,"https://www.dailycamera.com/2020/11/12/broomfield-extends-oil-and-gas-moratorium-another-6-months/",1,0,0,0,1,17
"125","Burlington","United States of America",44.4877,-73.2314,"USA",0,0,1,0,"https://vtdigger.org/2020/11/23/burlington-city-council-directs-retirement-fund-divestment-to-begin/",0,1,0,0,1,17
"126","California","United States of America",36.778259,-119.417931,"USA",1,0,0,0,"https://www.bloomberg.com/news/articles/2019-11-19/california-bans-high-pressure-steam-oil-wells-reviews-fracking",14,0,0,0,14,17
"127","California","United States of America",36.778259,-119.417931,"USA",1,0,0,0,"https://www.vcstar.com/story/news/2019/11/06/oil-drilling-ban-ventura-county-extended-board-supervisors/4144449002/",14,0,0,0,14,17
"128","California","United States of America",36.778259,-119.417931,"USA",1,0,0,0,"https://www.environmentaldefensecenter.org/california-coastal-sanctuary-act-of-1994/",14,0,0,0,14,17
"129","California","United States of America",36.778259,-119.417931,"USA",1,0,0,0,"https://us.eversheds-sutherland.com/files/News/0e55315d-cbcc-4ce0-a556-1080a70696c4/Presentation/NewsAttachment/077a264f-154c-49b7-bf72-1093d9cc43b3/EnergyAlertOCSMoratorium10108.pdf",14,0,0,0,14,17
"130","California","United States of America",36.778259,-119.417931,"USA",1,0,0,0,"https://www.reuters.com/article/us-us-fracking-california/beverly-hills-becomes-first-in-california-to-ban-fracking-idusBREA4603O20140507",14,0,0,0,14,17
"131","California","United States of America",36.778259,-119.417931,"USA",1,0,0,0,"http://www.latimes.com/local/lanow/la-me-ln-moratorium-oil-drilling-carson-fracking-20140430-story.html",14,0,0,0,14,17
"132","California","United States of America",36.778259,-119.417931,"USA",1,0,0,0,"http://www.pressdemocrat.com/news/3070579-181/mendocino-county-voters-ban-fracking",14,0,0,0,14,17
"133","California","United States of America",36.778259,-119.417931,"USA",1,0,0,0,"http://www.ksbw.com/article/san-benito-county-voters-pass-fracking-ban-with-measure-j/1055290",14,0,0,0,14,17
"134","California","United States of America",36.778259,-119.417931,"USA",1,0,0,0,"https://www.reuters.com/article/california-fracking-idusL1N0O700J20140521",14,0,0,0,14,17
"135","California","United States of America",36.778259,-119.417931,"USA",1,0,0,0,"http://www.dailycal.org/2016/07/31/alameda-county-first-in-bay-area-to-ban-fracking/",14,0,0,0,14,17
"136","California","United States of America",36.778259,-119.417931,"USA",1,0,0,0,"https://www.foodandwaterwatch.org/news/voters-celebrate-landslide-passage-fracking-ban-butte-county-california",14,0,0,0,14,17
"137","California","United States of America",36.778259,-119.417931,"USA",1,0,0,0,"http://www.santacruzsentinel.com/article/NE/20160223/NEWS/160229865",14,0,0,0,14,17
"138","California","United States of America",36.778259,-119.417931,"USA",1,0,0,0,"https://www.bloomberg.com/news/articles/2019-11-19/california-bans-high-pressure-steam-oil-wells-reviews-fracking",14,0,0,0,14,17
"139","California","United States of America",36.778259,-119.417931,"USA",1,0,0,0,"https://www.vcstar.com/story/news/2019/11/06/oil-drilling-ban-ventura-county-extended-board-supervisors/4144449002/",14,0,0,0,14,17
"140","Cantabria","Spain",43.388409,-4.289372,"ESP",1,0,0,0,"https://www.euractiv.com/section/energy/news/shale-rich-spanish-region-votes-to-ban-fracking/",1,0,0,0,1,1
"141","Canterbury","New Zealand",-43.52565,172.639847,"NZL",1,0,0,0,"https://www.nzherald.co.nz/nz/news/article.cfm?c_id=1&objectid=10798417",1,0,0,0,1,1
"142","Cape Town","South Africa",-33.925,18.425,"ZAF",0,0,1,0,"https://www.c40.org/press_releases/cities-commit-divest-invest",0,1,0,0,1,0
"143","Castile and León","Spain",41.652779,-4.723611,"ESP",1,0,0,0,"https://keeptapwatersafe.org/global-bans-on-fracking/",1,0,0,0,1,1
"144","Colorado","United States of America",39.113014,-105.358887,"USA",1,0,0,0,"https://www.denverpost.com/2019/06/28/boulder-county-oil-gas-moratorium/",7,0,0,0,7,17
"145","Colorado","United States of America",39.113014,-105.358887,"USA",1,0,0,0,"https://www.denverpost.com/2017/11/07/lafayette-approves-6-month-oil-and-gas-moratorium/",7,0,0,0,7,17
"146","Colorado","United States of America",39.113014,-105.358887,"USA",1,0,0,0,"http://www.timescall.com/longmont-local-news/ci_29839751/colo-supreme-court-strikes-down-longmont-fracking-ban",7,0,0,0,7,17
"147","Colorado","United States of America",39.113014,-105.358887,"USA",1,0,0,0,"https://www.coloradoan.com/story/news/2016/05/02/colorado-supreme-court-rules-against-fort-collins-fracking-moratorium/83798238/",7,0,0,0,7,17
"148","Colorado","United States of America",39.113014,-105.358887,"USA",1,0,0,0,"https://www.denverpost.com/2017/03/15/boulder-county-protesters-fracking-ban/",7,0,0,0,7,17
"149","Colorado","United States of America",39.113014,-105.358887,"USA",1,0,0,0,"https://www.denverpost.com/2017/11/07/lafayette-approves-6-month-oil-and-gas-moratorium/",7,0,0,0,7,17
"150","Colorado","United States of America",39.113014,-105.358887,"USA",1,0,0,0,"https://www.denverpost.com/2019/06/28/boulder-county-oil-gas-moratorium/",7,0,0,0,7,17
"151","Connacht","Ireland",53.87,-8.6333,"IRL",1,0,0,0,"http://www.shannonside.ie/news/local/leitrim/fracking-ban-celebrated-leitrim-tonight/",4,0,0,0,4,2
"152","Connacht","Ireland",53.87,-8.6333,"IRL",1,0,0,0,"https://www.irishtimes.com/news/roscommon-council-calls-for-fracking-ban-1.6354",4,0,0,0,4,2
"153","Connacht","Ireland",53.87,-8.6333,"IRL",1,0,0,0,"https://www.irishtimes.com/news/environment/sligo-to-retain-ban-on-fracking-in-county-development-plan-1.3026742",4,0,0,0,4,2
"154","Connacht","Ireland",53.87,-8.6333,"IRL",1,0,0,0,"http://www.shannonside.ie/news/local/leitrim/fracking-ban-celebrated-leitrim-tonight/",4,0,0,0,4,2
"155","Durban","South Africa",-29.8583,31.025,"ZAF",0,0,1,0,"https://www.c40.org/press_releases/cities-commit-divest-invest",0,1,0,0,1,0
"156","Eastern Band Cherokee","United States of America",35.5094,-83.3144,"USA",1,0,0,0,"https://indiancountrymedianetwork.com/news/environment/eastern-cherokee-band-forbids-fracking-on-its-sovereign-lands/",1,0,0,0,1,17
"157","England","United Kingdom",51.509865,-0.118092,"GBR",1,0,0,0,"https://www.theguardian.com/environment/2019/nov/02/fracking-banned-in-uk-as-government-makes-major-u-turn",1,0,0,0,1,11
"158","Entre Rios","Argentina",-31.7444,-60.5175,"ARG",1,0,0,0,"https://newsbase.com/topstories/entre-rios-becomes-first-province-ban-fracking-argentina",1,0,0,0,1,0
"159","Florida","United States of America",27.994402,-81.760254,"USA",1,0,0,0,"https://www.vox.com/science-and-health/2018/11/5/18055844/florida-amendment-9-vaping-offshore-drilling-midterm-election-results",21,0,0,0,21,17
"160","Florida","United States of America",27.994402,-81.760254,"USA",1,0,0,0,"https://www.news-press.com/story/news/local/bonita-springs/2015/07/15/crowd-crams-bonita-city-hall-ahead-of-fracking-vote/30182897/",21,0,0,0,21,17
"161","Florida","United States of America",27.994402,-81.760254,"USA",1,0,0,0,"http://www.coconutcreeknews.net/15728/176659/a/fracking-ban-stays-put-in-coconut-creek-senate-bill-dies-in-appropriations",21,0,0,0,21,17
"162","Florida","United States of America",27.994402,-81.760254,"USA",1,0,0,0,"https://www.news-press.com/story/news/local/estero/2015/12/16/estero-votes-fracking-ban/77436862/",21,0,0,0,21,17
"163","Florida","United States of America",27.994402,-81.760254,"USA",1,0,0,0,"http://www.ircgov.com/Boards/BCC/2015/minutes/BCC070715M.pdf",21,0,0,0,21,17
"164","Florida","United States of America",27.994402,-81.760254,"USA",1,0,0,0,"https://www.foodandwaterwatch.org/sites/default/files/frack_actions_stluciecountyfl_1.pdf",21,0,0,0,21,17
"165","Florida","United States of America",27.994402,-81.760254,"USA",1,0,0,0,"http://www.gainesville.com/article/LK/20160415/News/604169961/GS/",21,0,0,0,21,17
"166","Florida","United States of America",27.994402,-81.760254,"USA",1,0,0,0,"http://www.newsherald.com/article/20160216/NEWS/160219311",21,0,0,0,21,17
"167","Florida","United States of America",27.994402,-81.760254,"USA",1,0,0,0,"https://www.floridatoday.com/story/news/local/environment/2016/03/15/brevard-county-approves-fracking-ban/81801966/",21,0,0,0,21,17
"168","Florida","United States of America",27.994402,-81.760254,"USA",1,0,0,0,"https://www.news-press.com/story/news/2016/02/08/cape-coral-meeting/80006704/",21,0,0,0,21,17
"169","Florida","United States of America",27.994402,-81.760254,"USA",1,0,0,0,"https://oursantaferiver.org/citrus-county-approves-fracking-ban/",21,0,0,0,21,17
"170","Florida","United States of America",27.994402,-81.760254,"USA",1,0,0,0,"http://www.tampabay.com/news/localgovernment/dade-city-bans-controversial-fracking-technique/2289090",21,0,0,0,21,17
"171","Florida","United States of America",27.994402,-81.760254,"USA",1,0,0,0,"http://frackingflorida.org/madison-county-florida-passes-anti-fracking-ordinance/",21,0,0,0,21,17
"172","Florida","United States of America",27.994402,-81.760254,"USA",1,0,0,0,"http://www.tampabay.com/news/localgovernment/pinellas-county-commission-to-consider-fracking-ban/2280527",21,0,0,0,21,17
"173","Florida","United States of America",27.994402,-81.760254,"USA",1,0,0,0,"http://www.orlandosentinel.com/news/breaking-news/os-seminole-county-fracking-ordinance-20160209-story.html",21,0,0,0,21,17
"174","Florida","United States of America",27.994402,-81.760254,"USA",1,0,0,0,"http://www.wmnf.org/st-petersburg-seeks-ordinance-to-ban-fracking/",21,0,0,0,21,17
"175","Florida","United States of America",27.994402,-81.760254,"USA",1,0,0,0,"http://www.news-journalonline.com/article/LK/20160218/News/605064694/DN/",21,0,0,0,21,17
"176","Florida","United States of America",27.994402,-81.760254,"USA",1,0,0,0,"http://www.thewakullanews.com/content/board-reverses-passes-fracking-ban",21,0,0,0,21,17
"177","Florida","United States of America",27.994402,-81.760254,"USA",1,0,0,0,"http://www.nwfdailynews.com/news/20160223/commissioners-say-no-to-fracking/1",21,0,0,0,21,17
"178","Florida","United States of America",27.994402,-81.760254,"USA",1,0,0,0,"http://www.tampabay.com/news/localgovernment/zephyrhills-moves-toward-ban-on-fracking/2300126",21,0,0,0,21,17
"179","Florida","United States of America",27.994402,-81.760254,"USA",1,0,0,0,"https://www.vox.com/science-and-health/2018/11/5/18055844/florida-amendment-9-vaping-offshore-drilling-midterm-election-results",21,0,0,0,21,17
"180","Fribourg","Switzerland",46.8,7.15,"CHE",1,0,0,0,"https://www.swissinfo.ch/eng/shale-gas-could-remain-out-of-reach-in-the-ground/30281888",1,0,0,0,1,6
"181","Great Lakes","United States of America",45.052238,-82.484612,"USA",1,0,0,0,"http://www.lrc.usace.army.mil/GrtLakes/OilGas/FinalReport.pdf",1,0,0,0,1,17
"182","Greenland","Denmark",71.706936,-42.604303,"DNK",1,0,0,0,"https://www.theguardian.com/world/2013/mar/27/greenland-halts-oil-drilling-licences",1,0,0,0,1,0
"183","Groningen","Netherlands",53.2204,6.58,"NLD",1,0,0,0,"https://www.reuters.com/article/us-netherlands-groningen-gas/netherlands-to-halt-gas-production-at-groningen-by-2030-idUSKBN1H51PN",2,0,0,0,2,1
"184","Groningen","Netherlands",53.2204,6.58,"NLD",1,0,0,0,"https://www.reuters.com/article/us-netherlands-groningen-gas/netherlands-to-halt-gas-production-at-groningen-by-2030-idUSKBN1H51PN",2,0,0,0,2,1
"185","Gulf of Mexico","United States of America",25.681137,-89.890137,"USA",1,0,0,0,"https://www.boem.gov/oil-gas-energy/leasing/areas-under-restriction",1,0,0,0,1,17
"186","Indiana","United States of America",40.273502,-86.126976,"USA",1,0,0,0,"http://www.tribstar.com/news/local_news/council-bans-fracking-in-city/article_6354012b-7e01-5495-a11c-c2128604d77a.html",1,0,0,0,1,17
"187","London","United Kingdom",51.5072,-0.1275,"GBR",0,0,1,0,"https://www.c40.org/press_releases/cities-commit-divest-invest",0,1,0,0,1,11
"188","Maryland","United States of America",39.045753,-76.641273,"USA",1,0,0,0,"http://www.baltimoresun.com/news/maryland/politics/bs-md-fracking-ban-passes-20170327-story.html",4,0,0,0,4,17
"189","Maryland","United States of America",39.045753,-76.641273,"USA",1,0,0,0,"http://baltimore.cbslocal.com/2011/03/07/western-md-town-bans-new-natural-gas-wells/",4,0,0,0,4,17
"190","Maryland","United States of America",39.045753,-76.641273,"USA",1,0,0,0,"http://www.times-news.com/news/local_news/frostburg-officials-approve-fracking-ordinance/article_165d1413-4bf3-5edf-a141-66b963953e08.html",4,0,0,0,4,17
"191","Maryland","United States of America",39.045753,-76.641273,"USA",1,0,0,0,"http://www.baltimoresun.com/news/maryland/politics/bs-md-fracking-ban-passes-20170327-story.html",4,0,0,0,4,17
"192","Michigan","United States of America",44.182205,-84.506836,"USA",1,0,0,0,"http://banmichiganfracking.org/?p=1815",6,0,0,0,6,17
"193","Michigan","United States of America",44.182205,-84.506836,"USA",1,0,0,0,"http://westernpriorities.org/wp-content/uploads/2014/03/Michigan-Passed-Legislation.pdf",6,0,0,0,6,17
"194","Michigan","United States of America",44.182205,-84.506836,"USA",1,0,0,0,"http://westernpriorities.org/wp-content/uploads/2014/03/Michigan-Passed-Legislation.pdf",6,0,0,0,6,17
"195","Michigan","United States of America",44.182205,-84.506836,"USA",1,0,0,0,"http://michiganradio.org/post/michigan-township-association-leery-fracking-moratoriums",6,0,0,0,6,17
"196","Michigan","United States of America",44.182205,-84.506836,"USA",1,0,0,0,"http://welovedexter.com/oil-gas-exploration-moratorium-goes-into-effect-after-city-council-vote/",6,0,0,0,6,17
"197","Michigan","United States of America",44.182205,-84.506836,"USA",1,0,0,0,"http://www.macombdaily.com/article/MD/20150519/NEWS/150519610",6,0,0,0,6,17
"198","Milan","Italy",45.4669,9.19,"ITA",0,0,1,0,"https://www.c40.org/press_releases/cities-commit-divest-invest",0,1,0,0,1,3
"199","Minnesota","United States of America",46.39241,-94.63623,"USA",1,0,0,0,"https://www.ecowatch.com/frac-sand-mining-fracking-2145279944.html",1,0,0,0,1,17
"200","New Brunswick","Canada",46.49839,-66.159668,"CAN",1,0,0,0,"http://www.cbc.ca/news/canada/new-brunswick/shale-gas-moratorium-details-unveiled-by-brian-gallant-1.2877440",1,0,0,0,1,15
"201","New Jersey","United States of America",39.833851,-74.871826,"USA",1,0,0,0,"https://www.ecowatch.com/new-jersey-offshore-drilling-ban-2562603514.html",6,0,0,0,6,17
"202","New Jersey","United States of America",39.833851,-74.871826,"USA",1,0,0,0,"http://franklintwpnj.org/home/showdocument?id=3895",6,0,0,0,6,17
"203","New Jersey","United States of America",39.833851,-74.871826,"USA",1,0,0,0,"http://www.nj.com/news/index.ssf/2012/02/nj_senate_panel_approves_bill_8.html",6,0,0,0,6,17
"204","New Jersey","United States of America",39.833851,-74.871826,"USA",1,0,0,0,"http://www.nj.com/middlesex/index.ssf/2013/09/highland_park_becomes_first_town_in_nj_to_ban_fracking.html",6,0,0,0,6,17
"205","New Jersey","United States of America",39.833851,-74.871826,"USA",1,0,0,0,"http://newbrunswicktoday.com/article/middlesex-county-becomes-first-new-jersey-ban-fracking",6,0,0,0,6,17
"206","New Jersey","United States of America",39.833851,-74.871826,"USA",1,0,0,0,"https://www.ecowatch.com/new-jersey-offshore-drilling-ban-2562603514.html",6,0,0,0,6,17
"207","New Mexico","United States of America",34.307144,-106.018066,"USA",1,0,0,0,"https://lajicarita.wordpress.com/2018/02/07/a-retrospective-on-the-mora-county-fracking-ban/",1,0,0,0,1,17
"208","New Orleans","United States of America",30.0687,-89.9288,"USA",0,0,1,0,"https://www.c40.org/press_releases/cities-commit-divest-invest",0,1,0,0,1,17
"209","New South Wales","Australia",-31.840233,145.612793,"AUS",1,0,0,0,"https://www.smh.com.au/environment/dead-in-the-water-ofarrell-buries-coal-seam-gas-plans-20130218-2eniw.html",1,0,0,0,1,8
"210","New York","United States of America",43,-75,"USA",1,0,0,0,"https://stateimpact.npr.org/pennsylvania/2017/12/08/new-yorks-heralded-fracking-ban-isnt-all-its-cracked-up-to-be/",1,0,0,0,1,17
"211","Newfoundland & Labrador","Canada",53.135509,-57.660435,"CAN",1,0,0,0,"http://www.cbc.ca/news/canada/newfoundland-labrador/western-nl-hydraulic-fracturing-report-released-1.3607408",1,0,0,0,1,15
"212","North Carolina","United States of America",35.782169,-80.793457,"USA",1,0,0,0,"https://frackfreenc.org/lee-county-passes-moratorium-on-oil-and-gas-development/",7,0,0,0,7,17
"213","North Carolina","United States of America",35.782169,-80.793457,"USA",1,0,0,0,"https://www.congress.gov/bill/105th-congress/house-bill/2615",7,0,0,0,7,17
"214","North Carolina","United States of America",35.782169,-80.793457,"USA",1,0,0,0,"http://www.heraldsun.com/news/local/counties/chatham-county/article163167908.html",7,0,0,0,7,17
"215","North Carolina","United States of America",35.782169,-80.793457,"USA",1,0,0,0,"http://wmra.org/post/rockingham-county-votes-down-long-tabled-fracking-application#stream/0",7,0,0,0,7,17
"216","North Carolina","United States of America",35.782169,-80.793457,"USA",1,0,0,0,"http://www.journalnow.com/news/local/stokes-votes-for-fracking-moratorium/article_6510d63b-ec45-506c-a567-d99fade8e137.html",7,0,0,0,7,17
"217","North Carolina","United States of America",35.782169,-80.793457,"USA",1,0,0,0,"https://frackfreenc.org/wp-content/uploads/Stoneville.pdf",7,0,0,0,7,17
"218","North Carolina","United States of America",35.782169,-80.793457,"USA",1,0,0,0,"https://frackfreenc.org/lee-county-passes-moratorium-on-oil-and-gas-development/",7,0,0,0,7,17
"219","Northern Ireland","United Kingdom",54.607868,-5.926437,"GBR",1,0,0,0,"https://www.belfasttelegraph.co.uk/news/northern-ireland/fracking-banned-in-northern-ireland-for-the-first-time-31564424.html",1,0,0,0,1,11
"220","Northern Territories","Australia",-19.491411,132.550964,"AUS",1,0,0,0,"http://www.abc.net.au/news/2018-03-27/nt-government-told-risks-can-be-mitigated-if-hydraulic-fracking/9592056",1,0,0,0,1,8
"221","Nova Scotia","Canada",45,-63,"CAN",1,0,0,0,"https://www.theglobeandmail.com/report-on-business/industry-news/energy-and-resources/nova-scotia-to-ban-high-volume-hydraulic-fracturing/article20860189/",1,0,0,0,1,15
"222","Ohio","United States of America",40.367474,-82.996216,"USA",1,0,0,0,"https://marcellusdrilling.com/2011/07/wellsburg-wv-city-council-votes-to-repeal-two-month-old-marcellus-drilling-ban/",3,0,0,0,3,17
"223","Ohio","United States of America",40.367474,-82.996216,"USA",1,0,0,0,"http://www.climatecentral.org/news/voters-in-colorado-ohio-cities-sideline-fracking-16707",3,0,0,0,3,17
"224","Ohio","United States of America",40.367474,-82.996216,"USA",1,0,0,0,"https://insideclimatenews.org/news/20141105/athens-passes-fracking-ban-three-other-ohio-cities-dont",3,0,0,0,3,17
"225","Oslo","Norway",59.9111,10.7528,"NOR",0,0,1,0,"https://www.c40.org/press_releases/cities-commit-divest-invest",0,1,0,0,1,0
"226","Paraná","Brazil",-25.441105,-49.276855,"BRA",1,0,0,0,"https://paranaportal.uol.com.br/geral/parana-e-o-primeiro-estado-do-pais-a-proibir-o-fracking/",1,0,0,0,1,1
"227","Pennsylvania","United States of America",41.203323,-77.194527,"USA",1,0,0,0,"http://mtpennborough.net/wp-content/uploads/2017/12/February-13.pdf",5,0,0,0,5,17
"228","Pennsylvania","United States of America",41.203323,-77.194527,"USA",1,0,0,0,"https://www.shareable.net/blog/celdf-and-pittsburghs-community-bill-of-rights-banning-fracking",5,0,0,0,5,17
"229","Pennsylvania","United States of America",41.203323,-77.194527,"USA",1,0,0,0,"http://www.dontfractureillinois.net/2012/11/fracking-ban-in-baldwin-borough/",5,0,0,0,5,17
"230","Pennsylvania","United States of America",41.203323,-77.194527,"USA",1,0,0,0,"https://marcellusdrilling.com/2013/12/pa-town-in-poconos-symbolically-votes-to-condemn-fracking/",5,0,0,0,5,17
"231","Pennsylvania","United States of America",41.203323,-77.194527,"USA",1,0,0,0,"http://mtpennborough.net/wp-content/uploads/2017/12/February-13.pdf",5,0,0,0,5,17
"232","Pittsburgh","United States of America",40.4396,-79.9762,"USA",0,0,1,0,"https://www.c40.org/press_releases/cities-commit-divest-invest",0,1,0,0,1,17
"233","Quebec","Canada",46.829853,-71.254028,"CAN",1,0,0,0,"http://montrealgazette.com/news/quebec/couillard-rules-out-fracking",1,0,0,0,1,15
"234","Rio Negro","Argentina",-26.10583,-49.7975,"ARG",1,0,0,0,"https://www.rionegro.com.ar/region/cinco-saltos-le-dijo-no-al-fracking-GQRN_1037518",1,0,0,0,1,0
"235","Scotland","United Kingdom",56,-4,"GBR",1,0,0,0,"http://www.bbc.com/news/United Kingdom-scotland-scotland-politics-42624749",1,0,0,0,1,11
"236","Tasmania","Australia",-41.640079,146.315918,"AUS",1,0,0,0,"http://dpipwe.tas.gov.au/Documents/Tasmanian%20Fracking%20Policy%20Statement_26-2-15.pdf",1,0,0,0,1,8
"237","Texas","United States of America",31,-100,"USA",1,0,0,0,"https://www.rt.com/us/dallas-passes-fracking-restrictions-178/",2,0,0,0,2,17
"238","Texas","United States of America",31,-100,"USA",1,0,0,0,"https://www.theguardian.com/environment/2014/dec/02/denton-texas-fracking-ban-oil",2,0,0,0,2,17
"239","Turtle Mt Band Chippewa","United States of America",48.8391712,-99.7448688,"USA",1,0,0,0,"https://indiancountrymedianetwork.com/news/turtle-mountain-tribal-council-bans-fracking/",1,0,0,0,1,17
"240","Ulster","Ireland",54.3611,-7.4167,"IRL",1,0,0,0,"https://www.thejournal.ie/donegal-and-sligo-become-latest-local-authorities-to-ban-fracking-329929-Jan2012/",1,0,0,0,1,2
"241","Vermont","United States of America",44,-72.699997,"USA",1,0,0,0,"https://www.reuters.com/article/us-us-fracking-vermont/vermont-poised-to-be-first-state-to-outlaw-fracking-idusBRE84718720120508",1,0,0,0,1,17
"242","Victoria","Australia",-37.0201,144.9646,"AUS",1,0,0,0,"https://www.abc.net.au/news/2020-03-17/victoria-lifts-ban-on-onshore-gas-exploration-but-bans-fracking/12063196",2,0,0,0,2,8
"243","Victoria","Australia",-37.0201,144.9646,"AUS",1,0,0,0,"https://www.hydrocarbons-technology.com/news/newsaustralian-state-victoria-passes-fracking-ban-bill-5757218/",2,0,0,0,2,8
"244","Virginia","United States of America",37.926868,-78.024902,"USA",1,0,0,0,"http://www.richmond.com/news/virginia/richmond-county-becomes-second-locality-in-state-to-ban-fracking/article_06e7b739-ec18-5647-ae68-4426068e4cab.html",4,0,0,0,4,17
"245","Virginia","United States of America",37.926868,-78.024902,"USA",1,0,0,0,"https://www.newsleader.com/story/news/local/2017/02/23/augusta-first-county-va-ban-fracking/98304310/",4,0,0,0,4,17
"246","Virginia","United States of America",37.926868,-78.024902,"USA",1,0,0,0,"https://www.newsleader.com/story/news/local/2017/02/23/augusta-first-county-va-ban-fracking/98304310/",4,0,0,0,4,17
"247","Virginia","United States of America",37.926868,-78.024902,"USA",1,0,0,0,"http://www.richmond.com/news/virginia/richmond-county-becomes-second-locality-in-state-to-ban-fracking/article_06e7b739-ec18-5647-ae68-4426068e4cab.html",4,0,0,0,4,17
"248","Wales","United Kingdom",51.481583,-3.17909,"GBR",1,0,0,0,"http://www.bbc.com/news/United Kingdom-wales-politics-41489253",1,0,0,0,1,11
"249","Washington","United States of America",47.751076,-120.740135,"USA",1,0,0,0,"https://www.sightline.org/2019/01/28/king-county-council-approves-moratorium-fossil-fuel-expansion/",2,0,0,0,2,17
"250","Washington","United States of America",47.751076,-120.740135,"USA",1,0,0,0,"https://www.sightline.org/2019/01/28/king-county-council-approves-moratorium-fossil-fuel-expansion/",2,0,0,0,2,17
"251","West Virginia","United States of America",39,-80.5,"USA",1,0,0,0,"https://www.foodandwaterwatch.org/sites/default/files/frack_actions_lewisburgwv.pdf",1,0,0,0,1,17
"252","Western Australia","Australia",-25.042261,117.793221,"AUS",1,0,0,0,"https://www.reuters.com/article/us-australia-gas-fracking/western-australia-halts-hydraulic-fracturing-to-probe-risks-idusKCN1BG16F",1,0,0,0,1,8
"253","Yukon","Canada",64,-135,"CAN",1,0,0,0,"http://www.cbc.ca/news/canada/north/yUnited Kingdomon-oil-gas-request-postings-cancelled-1.4417211",2,0,0,0,2,15
"254","Yukon","Canada",64,-135,"CAN",1,0,0,0,"http://www.cbc.ca/news/canada/north/yUnited Kingdomon-oil-gas-request-postings-cancelled-1.4417211",2,0,0,0,2,15
"255","Banten, Java","Indonesia",-6.12,106.150276,"IDN",0,0,1,0,"https://www.reuters.com/article/us-stanchart-coal-idUSKBN1YM0KP",0,1,0,0,1,0
"256","East Nusa Tenggara","Indonesia",-8.657382,121.079369,"IDN",1,0,0,0,"https://bisnis.tempo.co/read/1173043/gubernur-ntt-keluarkan-pergub-moratorium-tambang",1,0,0,0,1,0
"257","Ha Noi","Viet Nam",21.028511,105.804817,"VNM",1,0,0,0,"https://ieefa.org/wp-content/uploads/2020/09/Vietnams-EVN-Faces-the-Future_September-2020.pdf",1,0,0,0,1,0
"258","Jakarta (National)","Indonesia",-6.2,106.816666,"IDN",1,0,0,0,"http://www.tribstar.com/news/local_news/council-bans-fracking-in-city/article_6354012b-7e01-5495-a11c-c2128604d77a.html",2,2,1,0,5,0
"259","Jakarta (National)","Indonesia",-6.2,106.816666,"IDN",1,0,0,0,"https://news.mongabay.com/2021/05/indonesia-says-no-new-coal-plants-from-2023-after-the-next-100-or-so/",2,2,1,0,5,0
"260","Jakarta (National)","Indonesia",-6.2,106.816666,"IDN",0,0,1,0,"https://www.cnnindonesia.com/ekonomi/20210604202237-85-650594/esdm-sebut-12-proyek-pltu-batu-bara-batal-dibangun",2,2,1,0,5,0
"261","Jakarta (National)","Indonesia",-6.2,106.816666,"IDN",0,0,1,0,"https://industri.kontan.co.id/news/dorong-diversifikasi-indika-energy-indy-buka-peluang-divestasi-aset-batubara",2,2,1,0,5,0
"262","Jakarta (National)","Indonesia",-6.2,106.816666,"IDN",0,1,0,0,"https://www.cnnindonesia.com/ekonomi/20200922101700-85-549268/general-electric-angkat-kaki-dari-bisnis-pltu-batu-bara",2,2,1,0,5,0
"263","Kuala Lumpur (National)","Malaysia",3.140853,101.693207,"MYS",0,0,1,0,"https://www.adb.org/sites/default/files/publication/175444/fossil-fuel-subsidies-indonesia.pdf",0,3,0,0,3,0
"264","Kuala Lumpur (National)","Malaysia",3.140853,101.693207,"MYS",0,0,1,0,"https://mobile.reuters.com/article/amp/idUKKBN28I0X0?edition-redirect=uk",0,3,0,0,3,0
"265","Kuala Lumpur (National)","Malaysia",3.140853,101.693207,"MYS",0,0,1,0,"https://www.reuters.com/article/malaysia-maybank/malaysias-maybank-to-stop-financing-new-coal-activities-idUSL4N2MT2PF",0,3,0,0,3,0
"266","Lampang Province (Local)","Thailand",18.285539,99.51279,"THA",1,0,0,0,"https://themalaysianreserve.com/2021/06/23/rhb-to-exit-coal-financing-by-2022/",1,0,0,0,1,0
"267","Sihanouk Preah","Cambodia",106.27543,103.522141,"KHM",1,0,0,0,"https://vodenglish.news/authorities-close-coal-ash-plant-that-coated-community-in-dust/",1,0,0,0,1,0
